[
  {
    "id": 1,
    "name": "Blok-M Plaza",
    "address": "Jl. Bulungan No. 76, Daerah Khusus Ibukota Jakarta 12130, Indonesia",
    "area": "South Jakarta",
    "latitude": -6.244183,
    "longitude": 106.797462,
    "open_hour": "10:00",
    "close_hour": "21:00",
    "phone": "+6221 720 9288"
  },
  {
    "id": 2,
    "name": "Senayan City",
    "address": "Jl. Asia Afrika Lot. 19 Jakarta Pusat, Daerah Khusus Ibukota Jakarta 10270, Indonesia",
    "area": "South Jakarta",
    "latitude": -6.227111,
    "longitude": 106.797037,
    "open_hour": "10:00",
    "close_hour": "22:00",
    "phone": "+6221 7278 1000"
  },
  {
    "id": 3,
    "name": "Pondok Indah Mall 2",
    "address": "Jl. Metro Pondok Indah Daerah Khusus Ibukota, Jakarta 12310, Indonesia",
    "area": "South Jakarta",
    "latitude": -6.265173,
    "longitude": 106.782767,
    "open_hour": "10:00",
    "close_hour": "22:00",
    "phone": "+6221 750 6750"
  },
  {
    "id": 4,
    "name": "Pacific Place",
    "address": "Jl. Jend Sudirman Kav. 52-53, Jakarta Selatan, DKI Jakarta 12190",
    "area": "South Jakarta",
    "latitude": -6.224537,
    "longitude": 106.809738,
    "open_hour": "10:00",
    "close_hour": "22:00",
    "phone": "+6221 5140 2828"
  },
  {
    "id": 5,
    "name": "ITC Kuningan",
    "address": "Jalan Professor Doktor Satrio Kav 25, Daerah Khusus Ibukota Jakarta 12940",
    "area": "South Jakarta",
    "latitude": -6.2233,
    "longitude": 106.826121,
    "open_hour": "10:00",
    "close_hour": "22:00",
    "phone": "+6221 5793 3888"
  },
  {
    "id": 6,
    "name": "Pondok Indah Mall 1",
    "address": "Jl. Metro Pondok Indah Jakarta, 12310",
    "area": "South Jakarta",
    "latitude": -6.264604,
    "longitude": 106.784043,
    "open_hour": "9:00",
    "close_hour": "22:00",
    "phone": "+6221 750 6750"
  },
  {
    "id": 7,
    "name": "Plaza Senayan",
    "address": "Jl. Asia Afrika No. 8, Daerah Khusus Ibukota Jakarta 10270",
    "area": "South Jakarta",
    "latitude": -6.225546,
    "longitude": 106.799143,
    "open_hour": "10:00",
    "close_hour": "22:00",
    "phone": "+6221 572 5555"
  },
  {
    "id": 8,
    "name": "Kota Kasablanka",
    "address": "Jl. Casablanca Raya Kav. 88, Jakarta Selatan 12870",
    "area": "South Jakarta",
    "latitude": -6.222519,
    "longitude": 106.842631,
    "open_hour": "10:00",
    "close_hour": "22:00",
    "phone": "+6221 2946 5000"
  },
  {
    "id": 9,
    "name": "Plaza Semanggi",
    "address": "Jl. Jenderal Sudirman Kav. 50 Jakarta Pusat 12930",
    "area": "Central Jakarta",
    "latitude": -6.218473,
    "longitude": 106.814258,
    "open_hour": "10:00",
    "close_hour": "22:00",
    "phone": "+6221 527 5878"
  },
  {
    "id": 10,
    "name": "Gandaria City",
    "address": "Jl. Sultan Iskandar Muda, Kby Lama, Kota Jak Sel. 12240",
    "area": "South Jakarta",
    "latitude": -6.2439912,
    "longitude": 106.783487,
    "open_hour": "10:00",
    "close_hour": "22:00",
    "phone": "+6221 2905 2888"
  },
  {
    "id": 11,
    "name": "Mal Taman Anggrek",
    "address": "Jl. Letjend. S. Parman Kav. 21 Jakarta Barat Daerah Khusus Ibukota Jakarta 11470",
    "area": "West Jakarta",
    "latitude": -6.178698,
    "longitude": 106.792536,
    "open_hour": "10:00",
    "close_hour": "22:00",
    "phone": "+6221 563 9113"
  },
  {
    "id": 12,
    "name": "Central Park",
    "address": "Podomoro City, Jl. Let. Jend. S. Parman Kav. 28, Jakarta 11470, Indonesia",
    "area": "West Jakarta",
    "latitude": -6.177506,
    "longitude": 106.791036,
    "open_hour": "10:00",
    "close_hour": "22:00",
    "phone": "+6221 5698 9999"
  },
  {
    "id": 13,
    "name": "Mal Ciputra",
    "address": "Jl. Arteri S.Parman Grogol Jakarta Barat 11470 Indonesia",
    "area": "West Jakarta",
    "latitude": -6.163851,
    "longitude": 106.786422,
    "open_hour": "10:00",
    "close_hour": "22:00",
    "phone": "+6221 566 2121"
  },
  {
    "id": 14,
    "name": "Seasons City",
    "address": "Jl. Prof. Dr.Latumenten No. 33, Jembatan Besi Tambora Jakarta Barat11320 ",
    "area": "West Jakarta",
    "latitude": -6.152753,
    "longitude": 106.796397,
    "open_hour": "10:00",
    "close_hour": "22:00",
    "phone": "+6221 6386 6666"
  },
  {
    "id": 15,
    "name": "Lippo Mall Puri",
    "address": "Jl. Puri Indah Raya Blok U1 , Puri Indah CBD Jakarta, 11610",
    "area": "West Jakarta",
    "latitude": -6.186105,
    "longitude": 106.732986,
    "open_hour": "10:00",
    "close_hour": "22:00",
    "phone": "+6221 291 1111"
  },
  {
    "id": 16,
    "name": "WTC Mangga Dua",
    "address": "Jl. Mangga Dua Raya No. 8, Jakarta Utara 14430, Indonesia",
    "area": "North Jakarta",
    "latitude": -6.132221,
    "longitude": 106.830132,
    "open_hour": "11:00",
    "close_hour": "20:30",
    "phone": "+6221 3001 8888"
  },
  {
    "id": 17,
    "name": "Mall Emporium Pluit",
    "address": "Jl. Pluit Selatan Raya Jakarta Utara, Indonesia",
    "area": "North Jakarta",
    "latitude": -6.126482,
    "longitude": 106.790666,
    "open_hour": "10:00",
    "close_hour": "22:00",
    "phone": "+6221 6667 6288"
  },
  {
    "id": 18,
    "name": "Mall Artha Gading",
    "address": "Jl. Artha Gading Selatan No. 1, Jakarta Utara, Daerah Khusus Ibukota Jakarta 14240, Indonesia",
    "area": "North Jakarta",
    "latitude": -6.145801,
    "longitude": 106.891991,
    "open_hour": "10:00",
    "close_hour": "22:00",
    "phone": "+6221 4585 8180"
  },
  {
    "id": 19,
    "name": "Mall Kelapa Gading",
    "address": "Jl. Boulevard Kelapa Gading Blok M, Jakarta Utara, DKI Jakarta 14240",
    "area": "North Jakarta",
    "latitude": -6.158198,
    "longitude": 106.908034,
    "open_hour": "10:00",
    "close_hour": "21:00",
    "phone": "+6221 453 1101"
  },
  {
    "id": 20,
    "name": "Mall of Indonesia",
    "address": "Jl. Raya Boulevard Barat No. 1, Kelapa Gading, Jakarta Utara, Daerah Khusus Ibukota Jakarta 14240",
    "area": "North Jakarta",
    "latitude": -6.150908,
    "longitude": 106.891926,
    "open_hour": "10:00",
    "close_hour": "22:00",
    "phone": "+6221 4586 7888"
  },
  {
    "id": 21,
    "name": "Gajah Mada Plaza",
    "address": "Jl. Gajah Mada No. 19-26 Petojo Utara Jakarta Pusat 10130",
    "area": "Central Jakarta",
    "latitude": -6.160651,
    "longitude": 106.818821,
    "open_hour": "10:00",
    "close_hour": "22:00",
    "phone": "+6221 6385 8888"
  },
  {
    "id": 22,
    "name": "Grand Indonesia",
    "address": "Jl. MH.Thamrin No.1, Jakarta Pusat, Daerah Khusus Ibukota Jakarta 10310, Indonesia",
    "area": "Central Jakarta",
    "latitude": -6.195103,
    "longitude": 106.820198,
    "open_hour": "10:00",
    "close_hour": "22:00",
    "phone": "+6221 2358 7000"
  }
]
